{
  "dep_code": "75",
  "dep_nom": "Paris",
  "clubs": [
    {
      "id": "demo_fff_75_000",
      "nom": "Phoenix Football",
      "disc": "football",
      "adresse": "10 rue de la Démo",
      "cp": "75011",
      "ville": "Paris 11e",
      "dep": "75",
      "lat": 48.8589,
      "lon": 2.3791,
      "geo": "manuel",
      "source": "fff",
      "sport_ids": [
        1
      ],
      "tel": "+330000000000",
      "email": "contact@phoenix-football.demo",
      "web": "https://phoenix-football.demo",
      "enrichi_par": "demo_fake"
    },
    {
      "id": "demo_ffr_75_001",
      "nom": "AS Étoile Rugby",
      "disc": "rugby-a-xv",
      "adresse": "17 rue de la Démo",
      "cp": "75015",
      "ville": "Paris 15e",
      "dep": "75",
      "lat": 48.8447,
      "lon": 2.3016,
      "geo": "manuel",
      "source": "ffr",
      "sport_ids": [
        2
      ],
      "tel": "+330000000001",
      "email": "contact@as-étoile-rugby.demo",
      "web": "https://as-étoile-rugby.demo",
      "enrichi_par": "demo_fake"
    },
    {
      "id": "demo_ffbb_75_002",
      "nom": "Olympic Basketball Club",
      "disc": "basketball",
      "adresse": "24 rue de la Démo",
      "cp": "75018",
      "ville": "Paris 18e",
      "dep": "75",
      "lat": 48.8985,
      "lon": 2.3504,
      "geo": "manuel",
      "source": "ffbb",
      "sport_ids": [
        3
      ],
      "tel": "+330000000002",
      "email": "contact@olympic-basketball-club.demo",
      "web": "https://olympic-basketball-club.demo",
      "enrichi_par": "demo_fake"
    },
    {
      "id": "demo_fft_75_003",
      "nom": "Tennis Spirit",
      "disc": "tennis",
      "adresse": "31 rue de la Démo",
      "cp": "75020",
      "ville": "Paris 20e",
      "dep": "75",
      "lat": 48.8721,
      "lon": 2.4079,
      "geo": "manuel",
      "source": "fft",
      "sport_ids": [
        6
      ],
      "tel": "+330000000003",
      "email": "contact@tennis-spirit.demo",
      "web": "https://tennis-spirit.demo",
      "enrichi_par": "demo_fake"
    },
    {
      "id": "demo_ffn_75_004",
      "nom": "Rebel Natation",
      "disc": "natation",
      "adresse": "38 rue de la Démo",
      "cp": "75011",
      "ville": "Paris 11e",
      "dep": "75",
      "lat": 48.8709,
      "lon": 2.3911,
      "geo": "manuel",
      "source": "ffn",
      "sport_ids": [
        9
      ],
      "tel": "+330000000004",
      "email": "contact@rebel-natation.demo",
      "web": "https://rebel-natation.demo",
      "enrichi_par": "demo_fake"
    },
    {
      "id": "demo_ffc_75_005",
      "nom": "Aurora Cyclisme",
      "disc": "cyclisme-route",
      "adresse": "45 rue de la Démo",
      "cp": "75015",
      "ville": "Paris 15e",
      "dep": "75",
      "lat": 48.8567,
      "lon": 2.3136,
      "geo": "manuel",
      "source": "ffc",
      "sport_ids": [
        11
      ],
      "tel": "+330000000005",
      "email": "contact@aurora-cyclisme.demo",
      "web": "https://aurora-cyclisme.demo",
      "enrichi_par": "demo_fake"
    },
    {
      "id": "demo_ffjudo_75_006",
      "nom": "Judo Crew",
      "disc": "judo",
      "adresse": "52 rue de la Démo",
      "cp": "75018",
      "ville": "Paris 18e",
      "dep": "75",
      "lat": 48.9105,
      "lon": 2.3624,
      "geo": "manuel",
      "source": "ffjudo",
      "sport_ids": [
        12
      ],
      "tel": "+330000000006",
      "email": "contact@judo-crew.demo",
      "web": "https://judo-crew.demo",
      "enrichi_par": "demo_fake"
    },
    {
      "id": "demo_ffboxe_75_007",
      "nom": "Vertical Boxe",
      "disc": "boxe-anglaise",
      "adresse": "59 rue de la Démo",
      "cp": "75020",
      "ville": "Paris 20e",
      "dep": "75",
      "lat": 48.8841,
      "lon": 2.4199,
      "geo": "manuel",
      "source": "ffboxe",
      "sport_ids": [
        15
      ],
      "tel": "+330000000007",
      "email": "contact@vertical-boxe.demo",
      "web": "https://vertical-boxe.demo",
      "enrichi_par": "demo_fake"
    },
    {
      "id": "demo_ffme_75_008",
      "nom": "Iron Escalade",
      "disc": "escalade",
      "adresse": "66 rue de la Démo",
      "cp": "75011",
      "ville": "Paris 11e",
      "dep": "75",
      "lat": 48.8829,
      "lon": 2.4031,
      "geo": "manuel",
      "source": "ffme",
      "sport_ids": [
        26
      ],
      "tel": "+330000000008",
      "email": "contact@iron-escalade.demo",
      "web": "https://iron-escalade.demo",
      "enrichi_par": "demo_fake"
    },
    {
      "id": "demo_ffdanse_75_009",
      "nom": "Forge Danse",
      "disc": "danse-sportive",
      "adresse": "73 rue de la Démo",
      "cp": "75015",
      "ville": "Paris 15e",
      "dep": "75",
      "lat": 48.8687,
      "lon": 2.3256,
      "geo": "manuel",
      "source": "ffdanse",
      "sport_ids": [
        46
      ],
      "tel": "+330000000009",
      "email": "contact@forge-danse.demo",
      "web": "https://forge-danse.demo",
      "enrichi_par": "demo_fake"
    },
    {
      "id": "demo_ffyoga_75_010",
      "nom": "Pulse Yoga",
      "disc": "yoga-pilates",
      "adresse": "80 rue de la Démo",
      "cp": "75018",
      "ville": "Paris 18e",
      "dep": "75",
      "lat": 48.9225,
      "lon": 2.3744,
      "geo": "manuel",
      "source": "ffyoga",
      "sport_ids": [
        73
      ],
      "tel": "+330000000010",
      "email": "contact@pulse-yoga.demo",
      "web": "https://pulse-yoga.demo",
      "enrichi_par": "demo_fake"
    },
    {
      "id": "demo_ffa_75_011",
      "nom": "Atlas Running",
      "disc": "athletisme",
      "adresse": "87 rue de la Démo",
      "cp": "75020",
      "ville": "Paris 20e",
      "dep": "75",
      "lat": 48.8961,
      "lon": 2.4319,
      "geo": "manuel",
      "source": "ffa",
      "sport_ids": [
        129
      ],
      "tel": "+330000000011",
      "email": "contact@atlas-running.demo",
      "web": "https://atlas-running.demo",
      "enrichi_par": "demo_fake"
    }
  ]
}